{
   "label":"กระบี่นครินทร์ อินเตอร์เนชั่นแนล",
   "id":"240",
   "lat":"8.0809049",
   "long":"98.9060125"
},
{
   "label":"กรุงเทพ",
   "id":"209",
   "lat":"13.7490955",
   "long":"100.5833517"
},
{
   "label":"กรุงเทพขอนแก่น",
   "id":"127",
   "lat":"16.4423488",
   "long":"102.8198957"
},
{
   "label":"กรุงเทพคริสเตียน",
   "id":"335",
   "lat":"13.7282522",
   "long":"100.5310954"
},
{
   "label":"กรุงเทพคริสเตียน นครปฐม",
   "id":"413",
   "lat":"13.8240205",
   "long":"100.0653223"
},
{
   "label":"กรุงเทพจันทบุรี",
   "id":"226",
   "lat":"12.6153942",
   "long":"102.1083906"
},
{
   "label":"กรุงเทพเชียงราย",
   "id":"189",
   "lat":"19.9926702",
   "long":"99.8636154"
},
{
   "label":"กรุงเทพเชียงใหม่",
   "id":"98",
   "lat":"18.7887844",
   "long":"99.0262296"
},
{
   "label":"กรุงเทพตราด",
   "id":"229",
   "lat":"12.252859",
   "long":"102.5078554"
},
{
   "label":"กรุงเทพปากช่อง",
   "id":"315",
   "lat":"14.7183119",
   "long":"101.4315859"
},
{
   "label":"กรุงเทพพัทยา",
   "id":"263",
   "lat":"12.9538826",
   "long":"100.9057917"
},
{
   "label":"กรุงเทพพิษณุโลก",
   "id":"126",
   "lat":"16.8163724",
   "long":"100.2724706"
},
{
   "label":"กรุงเทพเพชรบุรี",
   "id":"10654",
   "lat":"13.0830871",
   "long":"99.9455512"
},
{
   "label":"กรุงเทพภูเก็ต",
   "id":"232",
   "lat":"7.9041214",
   "long":"98.3762541"
},
{
   "label":"กรุงเทพเมืองราช",
   "id":"53",
   "lat":"13.5480721",
   "long":"99.8124431"
},
{
   "label":"กรุงเทพระยอง",
   "id":"182",
   "lat":"12.6747403",
   "long":"101.2214213"
},
{
   "label":"กรุงเทพราชสีมา",
   "id":"409",
   "lat":"14.9818097",
   "long":"102.0723667"
},
{
   "label":"กรุงเทพสนามจันทร์",
   "id":"10462",
   "lat":"13.8059415",
   "long":"100.0389504"
},
{
   "label":"กรุงเทพสมุย",
   "id":"115",
   "lat":"9.5148932",
   "long":"100.0486925"
},
{
   "label":"กรุงเทพสมุย ส่วนงานโรงพยาบาลพะงันอินเตอร์เนชั่นแนล",
   "id":"337",
   "lat":"9.7061204",
   "long":"100.0085282"
},
{
   "label":"กรุงเทพสุราษฏร์",
   "id":"164",
   "lat":"9.1221791",
   "long":"99.2930784"
},
{
   "label":"กรุงเทพหัวหิน",
   "id":"10529",
   "lat":"12.5542104",
   "long":"99.9609173"
},
{
   "label":"กรุงเทพหาดใหญ่",
   "id":"10551",
   "lat":"7.0156102",
   "long":"100.4860223"
},
{
   "label":"กรุงเทพอินเตอร์เนชั่นแนล",
   "id":"10661",
   "lat":"13.7490944",
   "long":"100.5832994"
},
{
   "label":"กรุงเทพอุดร",
   "id":"99",
   "lat":"17.4063398",
   "long":"102.8035405"
},
{
   "label":"กรุงไทย",
   "id":"306",
   "lat":"13.913003",
   "long":"100.508938"
},
{
   "label":"กรุงสยามเซนต์คาร์ลอส",
   "id":"112",
   "lat":"14.0049791",
   "long":"100.5539687"
},
{
   "label":"กล้วยน้ำไท",
   "id":"10573",
   "lat":"13.7139525",
   "long":"100.5874474"
},
{
   "label":"กว๋องสิวมูลนิธิ",
   "id":"10658",
   "lat":"13.7416794",
   "long":"100.5108072"
},
{
   "label":"กาญจนบุรีเมโมเรียล",
   "id":"10468",
   "lat":"14.056168",
   "long":"99.4976981"
},
{
   "label":"การุญเวช ปทุมธานี",
   "id":"26",
   "lat":"14.1172622",
   "long":"100.617726"
},
{
   "label":"การุญเวช อยุธยา",
   "id":"33",
   "lat":"14.2114748",
   "long":"100.6080658"
},
{
   "label":"กาฬสินธุ์-ธนบุรี",
   "id":"130",
   "lat":"16.4239344",
   "long":"103.4999148"
},
{
   "label":"เกษมราษฎร์ บางแค",
   "id":"34",
   "lat":"13.7110262",
   "long":"100.398637"
},
{
   "label":"เกษมราษฎร์ ประชาชื่น",
   "id":"210",
   "lat":"13.8317954",
   "long":"100.5386507"
},
{
   "label":"เกษมราษฎร์ แม่สาย",
   "id":"37",
   "lat":"20.4347993",
   "long":"99.8826078"
},
{
   "label":"เกษมราษฎร์ รามคำแหง",
   "id":"47",
   "lat":"13.7794045",
   "long":"100.6763727"
},
{
   "label":"เกษมราษฎร์ ศรีบุรินทร์",
   "id":"36",
   "lat":"19.8779288",
   "long":"99.8353982"
},
{
   "label":"เกษมราษฎร์ สระบุรี",
   "id":"10651",
   "lat":"14.5235779",
   "long":"100.933327"
},
{
   "label":"เกษมราษฎร์ อินเตอร์เนชั่นแนล รัตนาธิเบศร์",
   "id":"52",
   "lat":"13.880893",
   "long":"100.4095774"
},
{
   "label":"เกษมราษฎร์ฉะเชิงเทรา",
   "id":"415",
   "lat":"13.6956236",
   "long":"101.0516243"
},
{
   "label":"เกษมราษฏร์รัตนาธิเบศร์",
   "id":"45",
   "lat":"13.8756641",
   "long":"100.4232765"
},
{
   "label":"เกาะช้างอินเตอร์เนชั่นแนล",
   "id":"10626",
   "lat":"12.0929496",
   "long":"102.2775328"
},
{
   "label":"โกลเด้นเยียส์",
   "id":"111",
   "lat":"13.789732",
   "long":"100.577426"
},
{
   "label":"ขอนแก่นราม",
   "id":"41",
   "lat":"16.4329506",
   "long":"102.8212994"
},
{
   "label":"เขลางค์นคร-ราม",
   "id":"10579",
   "lat":"18.2816095",
   "long":"99.4855924"
},
{
   "label":"คริสเตียนแม่น้ำแควน้อย",
   "id":"10699",
   "lat":"15.1597984",
   "long":"98.3472183"
},
{
   "label":"คลองตัน",
   "id":"145",
   "lat":"13.7420209",
   "long":"100.5944703"
},
{
   "label":"คามิลเลียน",
   "id":"114",
   "lat":"13.7393764",
   "long":"100.583679"
},
{
   "label":"จริยธรรมรวมแพทย์กระบี่",
   "id":"10703",
   "lat":"8.1013272",
   "long":"98.9076936"
},
{
   "label":"จอมเทียน",
   "id":"271",
   "lat":"12.9126895",
   "long":"100.8963225"
},
{
   "label":"จักษุ รัตนิน",
   "id":"10464",
   "lat":"13.7464254",
   "long":"100.5631413"
},
{
   "label":"จุรีเวช",
   "id":"10501",
   "lat":"16.0530515",
   "long":"103.6724911"
},
{
   "label":"จุฬารัตน์ 1 สุวรรณภูมิ",
   "id":"136",
   "lat":"13.6340174",
   "long":"100.709601"
},
{
   "label":"จุฬารัตน์ 11 อินเตอร์",
   "id":"141",
   "lat":"13.5425326",
   "long":"100.9628696"
},
{
   "label":"จุฬารัตน์ 3 อินเตอร์",
   "id":"151",
   "lat":"13.5994429",
   "long":"100.721179"
},
{
   "label":"จุฬารัตน์ 304 อินเตอร์",
   "id":"147",
   "lat":"13.8970261",
   "long":"101.6049243"
},
{
   "label":"จุฬารัตน์ 5",
   "id":"138",
   "lat":"13.5689235",
   "long":"100.7899309"
},
{
   "label":"จุฬารัตน์ 9 แอร์พอร์ต",
   "id":"140",
   "lat":"13.6774166",
   "long":"100.7223064"
},
{
   "label":"จุฬารัตน์ชลเวช",
   "id":"144",
   "lat":"13.3629085",
   "long":"100.986214"
},
{
   "label":"จุฬารัตน์ระยอง",
   "id":"146",
   "lat":"12.685234",
   "long":"101.2744505"
},
{
   "label":"เจ้าพระยา",
   "id":"267",
   "lat":"13.7804816",
   "long":"100.470554"
},
{
   "label":"เฉพาะทางขนาดเล็ก ผิวหนัง อโศก",
   "id":"190",
   "lat":"13.7508355",
   "long":"100.5642191"
},
{
   "label":"เฉพาะทางขนาดเล็ก ผิวหนังอโศก สาขาปิ่นเกล้า",
   "id":"192",
   "lat":"13.782071",
   "long":"100.4730517"
},
{
   "label":"เฉพาะทางมะเร็งกรุงเทพ",
   "id":"134",
   "lat":"13.7791524",
   "long":"100.5427329"
},
{
   "label":"เฉพาะทางแม่และเด็ก แพทย์รังสิต",
   "id":"363",
   "lat":"13.9634103",
   "long":"100.6218696"
},
{
   "label":"ชลลดา",
   "id":"10526",
   "lat":"13.9095588",
   "long":"100.4263339"
},
{
   "label":"ชัยเกษมการแพทย์",
   "id":"10541",
   "lat":"17.395296",
   "long":"102.8094476"
},
{
   "label":"ชัยภูมิ ราม",
   "id":"266",
   "lat":"15.7888789",
   "long":"102.0282618"
},
{
   "label":"ชัยภูมิรวมแพทย์",
   "id":"10531",
   "lat":"15.8159648",
   "long":"102.0375305"
},
{
   "label":"ชัยอรุณเวชการ",
   "id":"10600",
   "lat":"16.4367481",
   "long":"100.3423669"
},
{
   "label":"ชินเขต",
   "id":"435",
   "lat":"13.8556964",
   "long":"100.551149"
},
{
   "label":"ชีวา ทรานสิชั่นนัล แคร์",
   "id":"326",
   "lat":"13.751197",
   "long":"100.583493"
},
{
   "label":"เช็นทรัลเชียงใหม่เมโมเรียล",
   "id":"372",
   "lat":"18.7730197",
   "long":"98.9982799"
},
{
   "label":"เชียงรายอินเตอร์",
   "id":"244",
   "lat":"19.894961",
   "long":"99.8312019"
},
{
   "label":"เชียงใหม่ใกล้หมอ",
   "id":"10607",
   "lat":"18.7609688",
   "long":"98.972544"
},
{
   "label":"เชียงใหม่เมดิคอลเซ็นเตอร์",
   "id":"10688",
   "lat":"18.7803222",
   "long":"98.9883404"
},
{
   "label":"เชียงใหม่ราม",
   "id":"11",
   "lat":"18.7948695",
   "long":"98.9775681"
},
{
   "label":"เชียงใหม่ฮอสพิทอล",
   "id":"10502",
   "lat":"18.8106716",
   "long":"98.9813433"
},
{
   "label":"ซานคามิลโล",
   "id":"91",
   "lat":"13.810422",
   "long":"99.8792132"
},
{
   "label":"ซานเปาโลหัวหิน",
   "id":"269",
   "lat":"12.5639259",
   "long":"99.9595406"
},
{
   "label":"ซีจีเอช",
   "id":"427",
   "lat":"13.8891438",
   "long":"100.6065176"
},
{
   "label":"เซนต์ปีเตอร์",
   "id":"10632",
   "lat":"18.8114694",
   "long":"98.9907539"
},
{
   "label":"เซนต์เมรี่",
   "id":"10467",
   "lat":"14.9868564",
   "long":"102.0930708"
},
{
   "label":"เซนต์หลุยส์",
   "id":"389",
   "lat":"13.7193462",
   "long":"100.5250164"
},
{
   "label":"เซ็นทรัล ปาร์ค",
   "id":"10482",
   "lat":"13.6156152",
   "long":"100.7440727"
},
{
   "label":"เฌ้อสเซอรี่โฮม",
   "id":"10701",
   "lat":"13.7358355",
   "long":"100.44461"
},
{
   "label":"ด๊อกเตอร์เฮลท์ อินเตอร์เนชั่นแนล",
   "id":"382",
   "lat":"13.7622068",
   "long":"100.3275914"
},
{
   "label":"ดีบุก",
   "id":"243",
   "lat":"7.8717149",
   "long":"98.3601362"
},
{
   "label":"เด็กสินแพทย์",
   "id":"199",
   "lat":"13.8342804",
   "long":"100.666306"
},
{
   "label":"เดอะโกลเดนเกท",
   "id":"10463",
   "lat":"14.9730257",
   "long":"102.1013875"
},
{
   "label":"เดอะซีเนียร์",
   "id":"287",
   "lat":"13.8275159",
   "long":"100.574452"
},
{
   "label":"ตรังรวมแพทย์",
   "id":"35",
   "lat":"7.5687267",
   "long":"99.6193691"
},
{
   "label":"ตา หู คอ จมูก",
   "id":"43",
   "lat":"13.7874744",
   "long":"100.4703999"
},
}